{"query": {"keyword": "51.5098\u00b0 E", "lat": "25.3052529", "lng": "51.4731336"}, "result": [{"name": "Education City Stadium Stadium , Qatar Foundation", "popularity": 10000749, "entryId": "148539", "leveling": 5, "itemId": "48275", "determinerId": "4", "location": {"lng": 51.4256, "lat": 25.3106}, "poiCategoryId": 31, "poiSubCategoryId": 161, "poiCategorySubCategoryId": 177, "contact": null, "distanceInKm": 4.8150616, "poiName": "Education City Stadium Stadium", "containerName": "Qatar Foundation", "score": 10.0, "callTypeEnum": "MORE_THAN_WORD_EXACT_TOP_LIST", "ner": true}, {"name": "Ezdan Mall , Al Gharrafa", "popularity": 10000833, "entryId": "130767", "leveling": 2, "itemId": "32074", "determinerId": "4", "location": {"lng": 51.4618, "lat": 25.3327}, "poiCategoryId": 35, "poiSubCategoryId": 199, "poiCategorySubCategoryId": 211, "contact": null, "distanceInKm": 3.2576535, "poiName": "Ezdan Mall", "containerName": "Al Gharrafa", "score": 10.0, "callTypeEnum": "MORE_THAN_WORD_EXACT_TOP_LIST", "ner": true}, {"name": "DECC - Doha Exhibition and Convention Center", "popularity": 10000718, "entryId": "120136", "leveling": 6, "itemId": "21440", "determinerId": "4", "location": {"lng": 51.5316, "lat": 25.3222}, "poiCategoryId": 33, "poiSubCategoryId": 179, "poiCategorySubCategoryId": 192, "contact": null, "distanceInKm": 6.171656, "poiName": "DECC - Doha Exhibition and Convention Center", "containerName": null, "score": 10.0, "callTypeEnum": "MORE_THAN_WORD_EXACT_TOP_LIST", "ner": true}, {"name": "Qarn E Street 83", "popularity": 4, "entryId": "43326", "leveling": 10, "itemId": "5427", "determinerId": "3", "location": {"lng": 51.480591201746854, "lat": 25.216627787125383}, "poiCategoryId": 0, "poiSubCategoryId": 0, "poiCategorySubCategoryId": null, "contact": null, "distanceInKm": 9.883158, "poiName": "Qarn E Street 83", "containerName": null, "score": 23.6, "callTypeEnum": "MORE_THAN_WORD_EXACT_NON_TOP_LIST", "ner": true}, {"name": "Mega E&M , Umm Al Seneem", "popularity": 0, "entryId": "138480", "leveling": 6, "itemId": "39787", "determinerId": "4", "location": {"lng": 51.4454, "lat": 25.2078}, "poiCategoryId": 38, "poiSubCategoryId": 239, "poiCategorySubCategoryId": 252, "contact": null, "distanceInKm": 11.189435, "poiName": "Mega E&M", "containerName": "Umm Al Seneem", "score": 23.6, "callTypeEnum": "MORE_THAN_WORD_EXACT_NON_TOP_LIST", "ner": true}, {"name": "P U R E Boutique , Al Aziziya", "popularity": 8, "entryId": "125249", "leveling": 4, "itemId": "26548", "determinerId": "4", "location": {"lng": 51.4458, "lat": 25.2498}, "poiCategoryId": 35, "poiSubCategoryId": 202, "poiCategorySubCategoryId": 214, "contact": null, "distanceInKm": 6.7508464, "poiName": "P U R E Boutique", "containerName": "Al Aziziya", "score": 23.6, "callTypeEnum": "MORE_THAN_WORD_EXACT_NON_TOP_LIST", "ner": true}, {"name": "E Industrial Bridge , Mesaimeer", "popularity": 5, "entryId": "127640", "leveling": 6, "itemId": "28942", "determinerId": "4", "location": {"lng": 51.4554, "lat": 25.1926}, "poiCategoryId": 18, "poiSubCategoryId": 21, "poiCategorySubCategoryId": 89, "contact": null, "distanceInKm": 12.6527605, "poiName": "E Industrial Bridge", "containerName": "Mesaimeer", "score": 23.6, "callTypeEnum": "MORE_THAN_WORD_EXACT_NON_TOP_LIST", "ner": true}, {"name": "E Ring Road 360", "popularity": 6, "entryId": "147922", "leveling": 10, "itemId": "4023", "determinerId": "3", "location": {"lng": 51.50880353590011, "lat": 25.252084491378127}, "poiCategoryId": 0, "poiSubCategoryId": 0, "poiCategorySubCategoryId": null, "contact": null, "distanceInKm": 6.914872, "poiName": "E Ring Road 360", "containerName": null, "score": 23.6, "callTypeEnum": "MORE_THAN_WORD_EXACT_NON_TOP_LIST", "ner": true}, {"name": "E-Book , Al Maamoura", "popularity": 2, "entryId": "120298", "leveling": 6, "itemId": "21602", "determinerId": "4", "location": {"lng": 51.4993, "lat": 25.2599}, "poiCategoryId": 37, "poiSubCategoryId": 225, "poiCategorySubCategoryId": 238, "contact": null, "distanceInKm": 5.6880093, "poiName": "E-Book", "containerName": "Al Maamoura", "score": 23.6, "callTypeEnum": "MORE_THAN_WORD_EXACT_NON_TOP_LIST", "ner": true}, {"name": "QBUYS E-Commerce , Fereej Al Soudan", "popularity": 3, "entryId": "139880", "leveling": 6, "itemId": "41187", "determinerId": "4", "location": {"lng": 51.4951, "lat": 25.2663}, "poiCategoryId": 34, "poiSubCategoryId": 186, "poiCategorySubCategoryId": 199, "contact": null, "distanceInKm": 4.861925, "poiName": "QBUYS E-Commerce", "containerName": "Fereej Al Soudan", "score": 23.6, "callTypeEnum": "MORE_THAN_WORD_EXACT_NON_TOP_LIST", "ner": true}, {"name": "E S Group , New Slata", "popularity": 1, "entryId": "120019", "leveling": 6, "itemId": "21323", "determinerId": "4", "location": {"lng": 51.5215, "lat": 25.2634}, "poiCategoryId": 38, "poiSubCategoryId": 230, "poiCategorySubCategoryId": 243, "contact": null, "distanceInKm": 6.730949, "poiName": "E S Group", "containerName": "New Slata", "score": 23.6, "callTypeEnum": "MORE_THAN_WORD_EXACT_NON_TOP_LIST", "ner": true}, {"name": "Future Vision e Cafe , Al Sadd", "popularity": 5, "entryId": "120525", "leveling": 5, "itemId": "21829", "determinerId": "4", "location": {"lng": 51.4949, "lat": 25.2812}, "poiCategoryId": 22, "poiSubCategoryId": 113, "poiCategorySubCategoryId": 129, "contact": null, "distanceInKm": 3.4557004, "poiName": "Future Vision e Cafe", "containerName": "Al Sadd", "score": 23.6, "callTypeEnum": "MORE_THAN_WORD_EXACT_NON_TOP_LIST", "ner": true}, {"name": "Noir e blanc , The Mall", "popularity": 2, "entryId": "163299", "leveling": 4, "itemId": "53574", "determinerId": "4", "location": {"lng": 51.5377558493335, "lat": 25.2528441763625}, "poiCategoryId": 35, "poiSubCategoryId": 205, "poiCategorySubCategoryId": 217, "contact": null, "distanceInKm": 8.728058, "poiName": "Noir e blanc", "containerName": "The Mall", "score": 23.6, "callTypeEnum": "MORE_THAN_WORD_EXACT_NON_TOP_LIST", "ner": true}, {"name": "D5 E Ring Road 260", "popularity": 2, "entryId": "147918", "leveling": 10, "itemId": "9083", "determinerId": "3", "location": {"lng": 51.54739295645624, "lat": 25.239548248264796}, "poiCategoryId": 0, "poiSubCategoryId": 0, "poiCategorySubCategoryId": null, "contact": null, "distanceInKm": 10.446687, "poiName": "D5 E Ring Road 260", "containerName": null, "score": 23.6, "callTypeEnum": "MORE_THAN_WORD_EXACT_NON_TOP_LIST", "ner": true}, {"name": "E Ring Road 260", "popularity": 5, "entryId": "41817", "leveling": 10, "itemId": "4022", "determinerId": "3", "location": {"lng": 51.54807416959835, "lat": 25.239595773165536}, "poiCategoryId": 0, "poiSubCategoryId": 0, "poiCategorySubCategoryId": null, "contact": null, "distanceInKm": 10.492077, "poiName": "E Ring Road 260", "containerName": null, "score": 23.6, "callTypeEnum": "MORE_THAN_WORD_EXACT_NON_TOP_LIST", "ner": true}, {"name": "E F S , Hamad Medical City", "popularity": 4, "entryId": "127639", "leveling": 6, "itemId": "28941", "determinerId": "4", "location": {"lng": 51.4986, "lat": 25.2962}, "poiCategoryId": 38, "poiSubCategoryId": 227, "poiCategorySubCategoryId": 240, "contact": "4477622", "distanceInKm": 2.750902, "poiName": "E F S", "containerName": "Hamad Medical City", "score": 23.6, "callTypeEnum": "MORE_THAN_WORD_EXACT_NON_TOP_LIST", "ner": true}, {"name": "New Shan E Lahore", "popularity": 4, "entryId": "186044", "leveling": 4, "itemId": "56824", "determinerId": "4", "location": {"lng": 51.5463481843472, "lat": 25.2748721853647}, "poiCategoryId": 22, "poiSubCategoryId": 112, "poiCategorySubCategoryId": 128, "contact": null, "distanceInKm": 8.098999, "poiName": "New Shan E Lahore", "containerName": null, "score": 23.6, "callTypeEnum": "MORE_THAN_WORD_EXACT_NON_TOP_LIST", "ner": true}, {"name": "Qatar Official e-Government Portal , Ministry of Information and Communications Technology ictQatar", "popularity": 0, "entryId": "174684", "leveling": 4, "itemId": "2147476364", "determinerId": "4", "location": {"lng": 51.5193976823485, "lat": 25.3133684737051}, "poiCategoryId": 32, "poiSubCategoryId": 171, "poiCategorySubCategoryId": 184, "contact": null, "distanceInKm": 4.7372875, "poiName": "Qatar Official e-Government Portal", "containerName": "Ministry of Information and Communications Technology ictQatar", "score": 23.6, "callTypeEnum": "MORE_THAN_WORD_EXACT_NON_TOP_LIST", "ner": true}, {"name": "Total E&P , Al Dafna", "popularity": 2, "entryId": "146128", "leveling": 5, "itemId": "47435", "determinerId": "4", "location": {"lng": 51.5298, "lat": 25.32}, "poiCategoryId": 38, "poiSubCategoryId": 233, "poiCategorySubCategoryId": 246, "contact": "44306777", "distanceInKm": 5.9273844, "poiName": "Total E&P", "containerName": "Al Dafna", "score": 23.6, "callTypeEnum": "MORE_THAN_WORD_EXACT_NON_TOP_LIST", "ner": true}, {"name": "Takht-e-Jamshid Restaurant , Al Markhiya", "popularity": 7, "entryId": "145582", "leveling": 4, "itemId": "46889", "determinerId": "4", "location": {"lng": 51.4979, "lat": 25.3322}, "poiCategoryId": 22, "poiSubCategoryId": 112, "poiCategorySubCategoryId": 128, "contact": null, "distanceInKm": 3.8955414, "poiName": "Takht-e-Jamshid Restaurant", "containerName": "Al Markhiya", "score": 23.6, "callTypeEnum": "MORE_THAN_WORD_EXACT_NON_TOP_LIST", "ner": true}, {"name": "E-max , Land Mark", "popularity": 0, "entryId": "161008", "leveling": 4, "itemId": "52282", "determinerId": "4", "location": {"lng": 51.4657, "lat": 25.3348}, "poiCategoryId": 35, "poiSubCategoryId": 203, "poiCategorySubCategoryId": 215, "contact": null, "distanceInKm": 3.369376, "poiName": "E-max", "containerName": "Land Mark", "score": 23.6, "callTypeEnum": "MORE_THAN_WORD_EXACT_NON_TOP_LIST", "ner": true}, {"name": "E-Pro Solution , City Center Doha Shopping Mall", "popularity": 0, "entryId": "130692", "leveling": 4, "itemId": "31999", "determinerId": "4", "location": {"lng": 51.5302, "lat": 25.3255}, "poiCategoryId": 35, "poiSubCategoryId": 207, "poiCategorySubCategoryId": 219, "contact": null, "distanceInKm": 6.1621256, "poiName": "E-Pro Solution", "containerName": "City Center Doha Shopping Mall", "score": 23.6, "callTypeEnum": "MORE_THAN_WORD_EXACT_NON_TOP_LIST", "ner": true}, {"name": "E-max , Gulf Mall", "popularity": 2, "entryId": "130164", "leveling": 4, "itemId": "31471", "determinerId": "4", "location": {"lng": 51.4609, "lat": 25.3357}, "poiCategoryId": 35, "poiSubCategoryId": 203, "poiCategorySubCategoryId": 215, "contact": null, "distanceInKm": 3.601947, "poiName": "E-max", "containerName": "Gulf Mall", "score": 23.6, "callTypeEnum": "MORE_THAN_WORD_EXACT_NON_TOP_LIST", "ner": true}, {"name": "Al Janoub Stadium - Parking E , Al Wakra", "popularity": 18, "entryId": "163433", "leveling": 4, "itemId": "53707", "determinerId": "4", "location": {"lng": 51.5850695307946, "lat": 25.1632277875417}, "poiCategoryId": 27, "poiSubCategoryId": 140, "poiCategorySubCategoryId": 156, "contact": null, "distanceInKm": 19.394999, "poiName": "Al Janoub Stadium - Parking E", "containerName": "Al Wakra", "score": 23.6, "callTypeEnum": "MORE_THAN_WORD_EXACT_NON_TOP_LIST", "ner": true}, {"name": "Pace e Luce , Al Gassar", "popularity": 2, "entryId": "160579", "leveling": 5, "itemId": "51853", "determinerId": "4", "location": {"lng": 51.5302, "lat": 25.3506}, "poiCategoryId": 34, "poiSubCategoryId": 183, "poiCategorySubCategoryId": 196, "contact": null, "distanceInKm": 7.6368675, "poiName": "Pace e Luce", "containerName": "Al Gassar", "score": 23.6, "callTypeEnum": "MORE_THAN_WORD_EXACT_NON_TOP_LIST", "ner": true}, {"name": "QNB ATM E service and CBM , Qatar University", "popularity": 30, "entryId": "141261", "leveling": 4, "itemId": "42568", "determinerId": "4", "location": {"lng": 51.4914, "lat": 25.3775}, "poiCategoryId": 26, "poiSubCategoryId": 133, "poiCategorySubCategoryId": 149, "contact": null, "distanceInKm": 8.240572, "poiName": "QNB ATM E service and CBM", "containerName": "Qatar University", "score": 23.6, "callTypeEnum": "MORE_THAN_WORD_EXACT_NON_TOP_LIST", "ner": true}, {"name": "Chuck E. Cheese , Lusail - Al Kharayej", "popularity": 21, "entryId": "169684", "leveling": 3, "itemId": "2147479656", "determinerId": "4", "location": {"lng": 51.4959475524389, "lat": 25.415150969889}, "poiCategoryId": 36, "poiSubCategoryId": 218, "poiCategorySubCategoryId": 231, "contact": null, "distanceInKm": 12.433254, "poiName": "Chuck E. Cheese", "containerName": "Lusail - Al Kharayej", "score": 23.6, "callTypeEnum": "MORE_THAN_WORD_EXACT_NON_TOP_LIST", "ner": true}]}
{"query": {"keyword": "AL Gamiya Center", "lat": "25.160526", "lng": "51.602016"}, "result": [{"name": "Ozone Gaming Center , Abu Hamour", "popularity": 2, "entryId": "174984", "leveling": 6, "itemId": "2147476329", "determinerId": "4", "location": {"lng": 51.4941421941177, "lat": 25.2277962543895}, "poiCategoryId": 31, "poiSubCategoryId": 167, "poiCategorySubCategoryId": 183, "contact": null, "distanceInKm": 13.181824, "poiName": "Ozone Gaming Center", "containerName": "Abu Hamour", "score": 13.5, "callTypeEnum": "MORE_THAN_WORD_EXACT_NON_TOP_LIST", "ner": false}, {"name": "Ibn Taymiya Center , Bani Hajer", "popularity": 17, "entryId": "162575", "leveling": 4, "itemId": "53378", "determinerId": "4", "location": {"lng": 51.4036017263291, "lat": 25.3155102381772}, "poiCategoryId": 29, "poiSubCategoryId": 252, "poiCategorySubCategoryId": 270, "contact": null, "distanceInKm": 26.367817, "poiName": "Ibn Taymiya Center", "containerName": "Bani Hajer", "score": 13.5, "callTypeEnum": "MORE_THAN_WORD_EXACT_NON_TOP_LIST", "ner": false}]}
{"query": {"keyword": "DAL Gamiya Center", "lat": "25.160526", "lng": "51.602016"}, "result": [{"name": "DECC - Doha Exhibition and Convention Center", "popularity": 10000718, "entryId": "120136", "leveling": 6, "itemId": "21440", "determinerId": "4", "location": {"lng": 51.5316, "lat": 25.3222}, "poiCategoryId": 33, "poiSubCategoryId": 179, "poiCategorySubCategoryId": 192, "contact": null, "distanceInKm": 19.322119, "poiName": "DECC - Doha Exhibition and Convention Center", "containerName": null, "score": 1.0, "ner": false}, {"name": "City Center Doha Mall , Al Dafna", "popularity": 10002246, "entryId": "130425", "leveling": 2, "itemId": "31732", "determinerId": "4", "location": {"lng": 51.5302, "lat": 25.3251}, "poiCategoryId": 35, "poiSubCategoryId": 199, "poiCategorySubCategoryId": 211, "contact": "44839990", "distanceInKm": 19.673725, "poiName": "City Center Doha Mall", "containerName": "Al Dafna", "score": 1.0, "ner": false}, {"name": "Doha Specialized Dental Clinic , Al Wakra", "popularity": 16, "entryId": "131964", "leveling": 4, "itemId": "33271", "determinerId": "4", "location": {"lng": 51.603, "lat": 25.1616}, "poiCategoryId": 25, "poiSubCategoryId": 129, "poiCategorySubCategoryId": 145, "contact": null, "distanceInKm": 0.15513894, "poiName": "Doha Specialized Dental Clinic", "containerName": "Al Wakra", "score": 1.0, "ner": false}, {"name": "Dayana Beauty Center , Al Wakra", "popularity": 2, "entryId": "172336", "leveling": 5, "itemId": "2147477511", "determinerId": "4", "location": {"lng": 51.5984916704119, "lat": 25.1603600863623}, "poiCategoryId": 34, "poiSubCategoryId": 183, "poiCategorySubCategoryId": 196, "contact": null, "distanceInKm": 0.35518575, "poiName": "Dayana Beauty Center", "containerName": "Al Wakra", "score": 1.0, "ner": false}, {"name": "Tashreen Massage Center , Al Wakra", "popularity": 7, "entryId": "166413", "leveling": 5, "itemId": "55502", "determinerId": "4", "location": {"lng": 51.5984871441066, "lat": 25.162120970285}, "poiCategoryId": 34, "poiSubCategoryId": 183, "poiCategorySubCategoryId": 196, "contact": null, "distanceInKm": 0.3969775, "poiName": "Tashreen Massage Center", "containerName": "Al Wakra", "score": 1.0, "ner": false}]}
{"query": {"keyword": "DOAL Gamiya Center", "lat": "25.160526", "lng": "51.602016"}, "result": [{"name": "Ozone Gaming Center , Abu Hamour", "popularity": 2, "entryId": "174984", "leveling": 6, "itemId": "2147476329", "determinerId": "4", "location": {"lng": 51.4941421941177, "lat": 25.2277962543895}, "poiCategoryId": 31, "poiSubCategoryId": 167, "poiCategorySubCategoryId": 183, "contact": null, "distanceInKm": 13.181807, "poiName": "Ozone Gaming Center", "containerName": "Abu Hamour", "score": 13.5, "callTypeEnum": "MORE_THAN_WORD_EXACT_NON_TOP_LIST", "ner": true}, {"name": "Ibn Taymiya Center , Bani Hajer", "popularity": 17, "entryId": "162575", "leveling": 4, "itemId": "53378", "determinerId": "4", "location": {"lng": 51.4036017263291, "lat": 25.3155102381772}, "poiCategoryId": 29, "poiSubCategoryId": 252, "poiCategorySubCategoryId": 270, "contact": null, "distanceInKm": 26.367779, "poiName": "Ibn Taymiya Center", "containerName": "Bani Hajer", "score": 13.5, "callTypeEnum": "MORE_THAN_WORD_EXACT_NON_TOP_LIST", "ner": true}]}
{"query": {"keyword": "DOH AL Gamiya Center", "lat": "25.160526", "lng": "51.602016"}, "result": [{"name": "Ibn Taymiya Center , Bani Hajer", "popularity": 17, "entryId": "162575", "leveling": 4, "itemId": "53378", "determinerId": "4", "location": {"lng": 51.4036017263291, "lat": 25.3155102381772}, "poiCategoryId": 29, "poiSubCategoryId": 252, "poiCategorySubCategoryId": 270, "contact": null, "distanceInKm": 26.367779, "poiName": "Ibn Taymiya Center", "containerName": "Bani Hajer", "score": 13.5, "callTypeEnum": "MORE_THAN_WORD_EXACT_NON_TOP_LIST", "ner": true}, {"name": "Ozone Gaming Center , Abu Hamour", "popularity": 2, "entryId": "174984", "leveling": 6, "itemId": "2147476329", "determinerId": "4", "location": {"lng": 51.4941421941177, "lat": 25.2277962543895}, "poiCategoryId": 31, "poiSubCategoryId": 167, "poiCategorySubCategoryId": 183, "contact": null, "distanceInKm": 13.181807, "poiName": "Ozone Gaming Center", "containerName": "Abu Hamour", "score": 13.5, "callTypeEnum": "MORE_THAN_WORD_EXACT_NON_TOP_LIST", "ner": true}]}
{"query": {"keyword": "DOHAL Gamiya Center", "lat": "25.160526", "lng": "51.602016"}, "result": [{"name": "City Center Doha Mall , Al Dafna", "popularity": 10002246, "entryId": "130425", "leveling": 2, "itemId": "31732", "determinerId": "4", "location": {"lng": 51.5302, "lat": 25.3251}, "poiCategoryId": 35, "poiSubCategoryId": 199, "poiCategorySubCategoryId": 211, "contact": "44839990", "distanceInKm": 19.673698, "poiName": "City Center Doha Mall", "containerName": "Al Dafna", "score": 16.3, "callTypeEnum": "ONE_WORD_EXACT_TOP_LIST", "ner": true}, {"name": "DECC - Doha Exhibition and Convention Center", "popularity": 10000718, "entryId": "120136", "leveling": 6, "itemId": "21440", "determinerId": "4", "location": {"lng": 51.5316, "lat": 25.3222}, "poiCategoryId": 33, "poiSubCategoryId": 179, "poiCategorySubCategoryId": 192, "contact": null, "distanceInKm": 19.322092, "poiName": "DECC - Doha Exhibition and Convention Center", "containerName": null, "score": 16.3, "callTypeEnum": "ONE_WORD_EXACT_TOP_LIST", "ner": true}, {"name": "Venture Gulf Training Center Ras Laffan , Birkat Rabiah", "popularity": 0, "entryId": "177788", "leveling": 3, "itemId": "2147475164", "determinerId": "4", "location": {"lng": 51.4141545323751, "lat": 25.9148439418032}, "poiCategoryId": 24, "poiSubCategoryId": 124, "poiCategorySubCategoryId": 140, "contact": null, "distanceInKm": 85.96797, "poiName": "Venture Gulf Training Center Ras Laffan", "containerName": "Birkat Rabiah", "score": 16.3, "callTypeEnum": "ONE_WORD_EXACT_NON_TOP_LIST", "ner": true}, {"name": "Al Kaaban Youth Center , Madinat Al Kaaban", "popularity": 22, "entryId": "114239", "leveling": 6, "itemId": "15546", "determinerId": "4", "location": {"lng": 51.351, "lat": 25.8779}, "poiCategoryId": 31, "poiSubCategoryId": 163, "poiCategorySubCategoryId": 179, "contact": "44728859", "distanceInKm": 83.65073, "poiName": "Al Kaaban Youth Center", "containerName": "Madinat Al Kaaban", "score": 16.3, "callTypeEnum": "ONE_WORD_EXACT_NON_TOP_LIST", "ner": true}, {"name": "Al Kaaban Primary Health Center , Madinat Al Kaaban", "popularity": 63, "entryId": "115534", "leveling": 2, "itemId": "16840", "determinerId": "4", "location": {"lng": 51.349, "lat": 25.8762}, "poiCategoryId": 25, "poiSubCategoryId": 130, "poiCategorySubCategoryId": 146, "contact": "44728322", "distanceInKm": 83.53133, "poiName": "Al Kaaban Primary Health Center", "containerName": "Madinat Al Kaaban", "score": 16.3, "callTypeEnum": "ONE_WORD_EXACT_NON_TOP_LIST", "ner": true}, {"name": "Leghwairiya Primary Health Center , Umm Lebrak", "popularity": 49, "entryId": "137011", "leveling": 2, "itemId": "38318", "determinerId": "4", "location": {"lng": 51.2673, "lat": 25.8445}, "poiCategoryId": 25, "poiSubCategoryId": 130, "poiCategorySubCategoryId": 146, "contact": "40273222", "distanceInKm": 83.14266, "poiName": "Leghwairiya Primary Health Center", "containerName": "Umm Lebrak", "score": 16.3, "callTypeEnum": "ONE_WORD_EXACT_NON_TOP_LIST", "ner": true}, {"name": "Government Services Centre , Tekfen", "popularity": 7, "entryId": "138585", "leveling": 4, "itemId": "39892", "determinerId": "4", "location": {"lng": 51.3436, "lat": 25.8297}, "poiCategoryId": 32, "poiSubCategoryId": 172, "poiCategorySubCategoryId": 185, "contact": null, "distanceInKm": 78.799416, "poiName": "Government Services Centre", "containerName": "Tekfen", "score": 16.3, "callTypeEnum": "ONE_WORD_EXACT_NON_TOP_LIST", "ner": true}, {"name": "Al Zubara Center Petrol Station , Rawdat Al Faras", "popularity": 184, "entryId": "118685", "leveling": 4, "itemId": "19990", "determinerId": "4", "location": {"lng": 51.3488, "lat": 25.8235}, "poiCategoryId": 27, "poiSubCategoryId": 139, "poiCategorySubCategoryId": 155, "contact": "44728405", "distanceInKm": 77.97731, "poiName": "Al Zubara Center Petrol Station", "containerName": "Rawdat Al Faras", "score": 16.3, "callTypeEnum": "ONE_WORD_EXACT_NON_TOP_LIST", "ner": true}, {"name": "Al Zubara shopping center , Rawdat Al Faras", "popularity": 0, "entryId": "180385", "leveling": 4, "itemId": "2147474337", "determinerId": "4", "location": {"lng": 51.3482970442825, "lat": 25.8233703881821}, "poiCategoryId": 35, "poiSubCategoryId": 201, "poiCategorySubCategoryId": 213, "contact": null, "distanceInKm": 77.98016, "poiName": "Al Zubara shopping center", "containerName": "Rawdat Al Faras", "score": 16.3, "callTypeEnum": "ONE_WORD_EXACT_NON_TOP_LIST", "ner": true}, {"name": "Al Ruwais Health Center , Madinat Al Shamal", "popularity": 35, "entryId": "169835", "leveling": 2, "itemId": "2147479088", "determinerId": "4", "location": {"lng": 51.2067835287963, "lat": 26.1248932795777}, "poiCategoryId": 25, "poiSubCategoryId": 130, "poiCategorySubCategoryId": 146, "contact": null, "distanceInKm": 114.31753, "poiName": "Al Ruwais Health Center", "containerName": "Madinat Al Shamal", "score": 16.3, "callTypeEnum": "ONE_WORD_EXACT_NON_TOP_LIST", "ner": true}, {"name": "Abdurrahman Bin Awf Center , Madinat Al Shamal", "popularity": 5, "entryId": "162603", "leveling": 4, "itemId": "53406", "determinerId": "4", "location": {"lng": 51.2036612619112, "lat": 26.1298946727364}, "poiCategoryId": 29, "poiSubCategoryId": 252, "poiCategorySubCategoryId": 270, "contact": null, "distanceInKm": 114.94741, "poiName": "Abdurrahman Bin Awf Center", "containerName": "Madinat Al Shamal", "score": 16.3, "callTypeEnum": "ONE_WORD_EXACT_NON_TOP_LIST", "ner": true}, {"name": "Al Shamal Primary Health Center , Madinat Al Shamal", "popularity": 103, "entryId": "116027", "leveling": 2, "itemId": "17332", "determinerId": "4", "location": {"lng": 51.2037, "lat": 26.1356}, "poiCategoryId": 25, "poiSubCategoryId": 130, "poiCategorySubCategoryId": 146, "contact": "44731809", "distanceInKm": 115.54084, "poiName": "Al Shamal Primary Health Center", "containerName": "Madinat Al Shamal", "score": 16.3, "callTypeEnum": "ONE_WORD_EXACT_NON_TOP_LIST", "ner": true}, {"name": "Al Jaber Trading Centre , Madinat Al Shamal", "popularity": 0, "entryId": "121711", "leveling": 6, "itemId": "23015", "determinerId": "4", "location": {"lng": 51.1953, "lat": 26.1297}, "poiCategoryId": 38, "poiSubCategoryId": 239, "poiCategorySubCategoryId": 252, "contact": null, "distanceInKm": 115.22101, "poiName": "Al Jaber Trading Centre", "containerName": "Madinat Al Shamal", "score": 16.3, "callTypeEnum": "ONE_WORD_EXACT_NON_TOP_LIST", "ner": true}, {"name": "Al Tirmithi Center , Al Ruwais", "popularity": 8, "entryId": "162584", "leveling": 4, "itemId": "53387", "determinerId": "4", "location": {"lng": 51.213092230657, "lat": 26.142388294381}, "poiCategoryId": 29, "poiSubCategoryId": 252, "poiCategorySubCategoryId": 270, "contact": null, "distanceInKm": 115.929115, "poiName": "Al Tirmithi Center", "containerName": "Al Ruwais", "score": 16.3, "callTypeEnum": "ONE_WORD_EXACT_NON_TOP_LIST", "ner": true}, {"name": "Government Services Centre , Madinat Al Shamal", "popularity": 22, "entryId": "124657", "leveling": 4, "itemId": "25957", "determinerId": "4", "location": {"lng": 51.1928, "lat": 26.1322}, "poiCategoryId": 32, "poiSubCategoryId": 172, "poiCategorySubCategoryId": 185, "contact": null, "distanceInKm": 115.56961, "poiName": "Government Services Centre", "containerName": "Madinat Al Shamal", "score": 16.3, "callTypeEnum": "ONE_WORD_EXACT_NON_TOP_LIST", "ner": true}, {"name": "Khalaf Al Bazzar Center , Al Thakhira", "popularity": 8, "entryId": "162590", "leveling": 4, "itemId": "53393", "determinerId": "4", "location": {"lng": 51.5443810932537, "lat": 25.7365959613368}, "poiCategoryId": 29, "poiSubCategoryId": 252, "poiCategorySubCategoryId": 270, "contact": null, "distanceInKm": 64.31692, "poiName": "Khalaf Al Bazzar Center", "containerName": "Al Thakhira", "score": 16.3, "callTypeEnum": "ONE_WORD_EXACT_NON_TOP_LIST", "ner": true}, {"name": "Al Dhakira Education Centre , Al Thakhira", "popularity": 13, "entryId": "115251", "leveling": 3, "itemId": "16558", "determinerId": "4", "location": {"lng": 51.5413, "lat": 25.7337}, "poiCategoryId": 24, "poiSubCategoryId": 124, "poiCategorySubCategoryId": 140, "contact": null, "distanceInKm": 64.02493, "poiName": "Al Dhakira Education Centre", "containerName": "Al Thakhira", "score": 16.3, "callTypeEnum": "ONE_WORD_EXACT_NON_TOP_LIST", "ner": true}, {"name": "Pediatric Emergency Center - HMC , Pediatric Sections - Al Khor Hospital", "popularity": 44, "entryId": "125259", "leveling": 2, "itemId": "26558", "determinerId": "4", "location": {"lng": 51.5169, "lat": 25.7166}, "poiCategoryId": 25, "poiSubCategoryId": 127, "poiCategorySubCategoryId": 143, "contact": null, "distanceInKm": 62.4205, "poiName": "Pediatric Emergency Center - HMC", "containerName": "Pediatric Sections - Al Khor Hospital", "score": 16.3, "callTypeEnum": "ONE_WORD_EXACT_NON_TOP_LIST", "ner": true}, {"name": "Al Thakira Youth Center", "popularity": 36, "entryId": "118594", "leveling": 6, "itemId": "19899", "determinerId": "4", "location": {"lng": 51.5362, "lat": 25.7241}, "poiCategoryId": 31, "poiSubCategoryId": 163, "poiCategorySubCategoryId": 179, "contact": "44722259", "distanceInKm": 63.01407, "poiName": "Al Thakira Youth Center", "containerName": null, "score": 16.3, "callTypeEnum": "ONE_WORD_EXACT_NON_TOP_LIST", "ner": true}, {"name": "Education Centre , Al Khor Community", "popularity": 5, "entryId": "120055", "leveling": 3, "itemId": "21359", "determinerId": "4", "location": {"lng": 51.526, "lat": 25.7126}, "poiCategoryId": 24, "poiSubCategoryId": 124, "poiCategorySubCategoryId": 140, "contact": null, "distanceInKm": 61.860573, "poiName": "Education Centre", "containerName": "Al Khor Community", "score": 16.3, "callTypeEnum": "ONE_WORD_EXACT_NON_TOP_LIST", "ner": true}, {"name": "Government Services Centre , Al Khor", "popularity": 27, "entryId": "138583", "leveling": 4, "itemId": "39890", "determinerId": "4", "location": {"lng": 51.4962, "lat": 25.6893}, "poiCategoryId": 32, "poiSubCategoryId": 172, "poiCategorySubCategoryId": 185, "contact": null, "distanceInKm": 59.749557, "poiName": "Government Services Centre", "containerName": "Al Khor", "score": 16.3, "callTypeEnum": "ONE_WORD_EXACT_NON_TOP_LIST", "ner": true}, {"name": "British Centre , Al Khor", "popularity": 7, "entryId": "123517", "leveling": 3, "itemId": "24818", "determinerId": "4", "location": {"lng": 51.4925, "lat": 25.6849}, "poiCategoryId": 24, "poiSubCategoryId": 124, "poiCategorySubCategoryId": 140, "contact": null, "distanceInKm": 59.33595, "poiName": "British Centre", "containerName": "Al Khor", "score": 16.3, "callTypeEnum": "ONE_WORD_EXACT_NON_TOP_LIST", "ner": true}, {"name": "Al Habari Centre , Al Khor", "popularity": 0, "entryId": "114111", "leveling": 6, "itemId": "15418", "determinerId": "4", "location": {"lng": 51.4951, "lat": 25.6852}, "poiCategoryId": 38, "poiSubCategoryId": 231, "poiCategorySubCategoryId": 244, "contact": null, "distanceInKm": 59.320908, "poiName": "Al Habari Centre", "containerName": "Al Khor", "score": 16.3, "callTypeEnum": "ONE_WORD_EXACT_NON_TOP_LIST", "ner": true}, {"name": "Dar Al Shifa Massage Center , Al Khor", "popularity": 8, "entryId": "136097", "leveling": 5, "itemId": "37404", "determinerId": "4", "location": {"lng": 51.4981, "lat": 25.6857}, "poiCategoryId": 34, "poiSubCategoryId": 183, "poiCategorySubCategoryId": 196, "contact": null, "distanceInKm": 59.321842, "poiName": "Dar Al Shifa Massage Center", "containerName": "Al Khor", "score": 16.3, "callTypeEnum": "ONE_WORD_EXACT_NON_TOP_LIST", "ner": true}, {"name": "Aster Medical Centre - Al Khor", "popularity": 8, "entryId": "174658", "leveling": 4, "itemId": "2147476377", "determinerId": "4", "location": {"lng": 51.498413, "lat": 25.684271}, "poiCategoryId": 25, "poiSubCategoryId": 129, "poiCategorySubCategoryId": 145, "contact": null, "distanceInKm": 59.159904, "poiName": "Aster Medical Centre - Al Khor", "containerName": null, "score": 16.3, "callTypeEnum": "ONE_WORD_EXACT_NON_TOP_LIST", "ner": true}, {"name": "Outpatients Physiotherapy Center , Al Khor", "popularity": 3, "entryId": "174660", "leveling": 4, "itemId": "2147476376", "determinerId": "4", "location": {"lng": 51.497901, "lat": 25.683716}, "poiCategoryId": 25, "poiSubCategoryId": 129, "poiCategorySubCategoryId": 145, "contact": null, "distanceInKm": 59.108234, "poiName": "Outpatients Physiotherapy Center", "containerName": "Al Khor", "score": 16.3, "callTypeEnum": "ONE_WORD_EXACT_NON_TOP_LIST", "ner": true}, {"name": "Life Line Medical Centre , Al Khor", "popularity": 0, "entryId": "173695", "leveling": 4, "itemId": "2147476761", "determinerId": "4", "location": {"lng": 51.493938, "lat": 25.68064}, "poiCategoryId": 25, "poiSubCategoryId": 129, "poiCategorySubCategoryId": 145, "contact": null, "distanceInKm": 58.843758, "poiName": "Life Line Medical Centre", "containerName": "Al Khor", "score": 16.3, "callTypeEnum": "ONE_WORD_EXACT_NON_TOP_LIST", "ner": true}]}
{"query": {"keyword": "DOHa AL Gamiya Center", "lat": "25.160526", "lng": "51.602016"}, "result": [{"name": "Ibn Taymiya Center , Bani Hajer", "popularity": 17, "entryId": "162575", "leveling": 4, "itemId": "53378", "determinerId": "4", "location": {"lng": 51.4036017263291, "lat": 25.3155102381772}, "poiCategoryId": 29, "poiSubCategoryId": 252, "poiCategorySubCategoryId": 270, "contact": null, "distanceInKm": 26.367779, "poiName": "Ibn Taymiya Center", "containerName": "Bani Hajer", "score": 13.5, "callTypeEnum": "MORE_THAN_WORD_EXACT_NON_TOP_LIST", "ner": true}, {"name": "Ozone Gaming Center , Abu Hamour", "popularity": 2, "entryId": "174984", "leveling": 6, "itemId": "2147476329", "determinerId": "4", "location": {"lng": 51.4941421941177, "lat": 25.2277962543895}, "poiCategoryId": 31, "poiSubCategoryId": 167, "poiCategorySubCategoryId": 183, "contact": null, "distanceInKm": 13.181807, "poiName": "Ozone Gaming Center", "containerName": "Abu Hamour", "score": 13.5, "callTypeEnum": "MORE_THAN_WORD_EXACT_NON_TOP_LIST", "ner": true}]}
